{
"type": "FeatureCollection",
"crs": { "type": "name", "properties": { "name": "urn:ogc:def:crs:OGC:1.3:CRS84" } },
"features": [
{ "type": "Feature", "properties": { "resortname": "49 Degrees North", "isnordic": "True", "isxconly": "False", "isalpinexc": "True", "isallied": "False", "url": "https://www.indyskipass.com/our-resorts/49-degrees-north", "Vertical": "1851 ft", "Trails": "88", "Lifts": "7", "Night": "No", "T-Parks": "Yes" }, "geometry": { "type": "Point", "coordinates": [ -117.6042013, 48.3010898 ] } },
{ "type": "Feature", "properties": { "resortname": "Amihari Onsen Ski Resort", "isnordic": "False", "isxconly": "False", "isalpinexc": "False", "isallied": "False", "url": "https://www.indyskipass.com/our-resorts/amihari-onsen-ski-resort", "Vertical": "1969 ft", "Trails": "7", "Lifts": "4", "Night": "No", "T-Parks": "No" }, "geometry": { "type": "Point", "coordinates": [ 140.936235056360005, 39.821302978855002 ] } },
{ "type": "Feature", "properties": { "resortname": "Andes Tower Hills", "isnordic": "True", "isxconly": "False", "isalpinexc": "True", "isallied": "False", "url": "https://www.indyskipass.com/our-resorts/andes-tower-hills", "Vertical": "290 ft", "Trails": "16", "Lifts": "6", "Night": "Yes", "T-Parks": "Yes" }, "geometry": { "type": "Point", "coordinates": [ -95.6330774, 45.850975 ] } },
{ "type": "Feature", "properties": { "resortname": "Ani Ski Resort", "isnordic": "False", "isxconly": "False", "isalpinexc": "False", "isallied": "False", "url": "https://www.indyskipass.com/our-resorts/ani-ski-resort", "Vertical": "2175 ft", "Trails": "5", "Lifts": "3", "Night": "No", "T-Parks": "No" }, "geometry": { "type": "Point", "coordinates": [ 140.495089799999988, 39.9573111 ] } },
{ "type": "Feature", "properties": { "resortname": "Antelope Butte", "isnordic": "False", "isxconly": "False", "isalpinexc": "False", "isallied": "False", "url": "https://www.indyskipass.com/our-resorts/antelope-butte", "Vertical": "1000 ft", "Trails": "30", "Lifts": "3", "Night": "No", "T-Parks": "Yes" }, "geometry": { "type": "Point", "coordinates": [ -107.5171051, 44.6124452 ] } },
{ "type": "Feature", "properties": { "resortname": "Aomori Spring Ski Resort", "isnordic": "False", "isxconly": "False", "isalpinexc": "False", "isallied": "False", "url": "https://www.indyskipass.com/our-resorts/aomori-spring-ski-resort", "Vertical": "1788 ft", "Trails": "14", "Lifts": "5", "Night": "Yes", "T-Parks": "Yes" }, "geometry": { "type": "Point", "coordinates": [ 140.2767197, 40.693185 ] } },
{ "type": "Feature", "properties": { "resortname": "Apex Mountain Resort", "isnordic": "False", "isxconly": "False", "isalpinexc": "False", "isallied": "False", "url": "https://www.indyskipass.com/our-resorts/apex-mountain-resort", "Vertical": "1979 ft", "Trails": "80", "Lifts": "4", "Night": "Yes", "T-Parks": "Yes" }, "geometry": { "type": "Point", "coordinates": [ -119.9060377, 49.3908831 ] } },
{ "type": "Feature", "properties": { "resortname": "Arctic Valley", "isnordic": "False", "isxconly": "False", "isalpinexc": "False", "isallied": "False", "url": "https://www.indyskipass.com/our-resorts/arctic-valley", "Vertical": "1400 ft", "Trails": "15", "Lifts": "4", "Night": "No", "T-Parks": "Yes" }, "geometry": { "type": "Point", "coordinates": [ -149.5350607, 61.2465242 ] } },
{ "type": "Feature", "properties": { "resortname": "Baldy Mountain Resort", "isnordic": "False", "isxconly": "False", "isalpinexc": "False", "isallied": "False", "url": "https://www.indyskipass.com/our-resorts/baldy-mountain-resort", "Vertical": "1315 ft", "Trails": "35", "Lifts": "3", "Night": "Yes", "T-Parks": "Yes" }, "geometry": { "type": "Point", "coordinates": [ -119.2411421, 49.1530415 ] } },
{ "type": "Feature", "properties": { "resortname": "Baqueira/Beret", "isnordic": "False", "isxconly": "False", "isalpinexc": "False", "isallied": "False", "url": "https://www.indyskipass.com/our-resorts/baqueiraberet", "Vertical": "3608 ft", "Trails": "122", "Lifts": "36", "Night": "No", "T-Parks": "Yes" }, "geometry": { "type": "Point", "coordinates": [ 0.9064088, 42.6952103 ] } },
{ "type": "Feature", "properties": { "resortname": "Bear Creek", "isnordic": "False", "isxconly": "False", "isalpinexc": "False", "isallied": "False", "url": "https://www.indyskipass.com/our-resorts/bear-creek", "Vertical": "510 ft", "Trails": "23", "Lifts": "6", "Night": "Yes", "T-Parks": "Yes" }, "geometry": { "type": "Point", "coordinates": [ -75.6496577, 40.4813472 ] } },
{ "type": "Feature", "properties": { "resortname": "Bear Valley Adventure Company", "isnordic": "True", "isxconly": "True", "isalpinexc": "False", "isallied": "False", "url": "https://www.indyskipass.com/our-resorts/bear-valley-adventure-company", "Vertical": "900 ft", "Trails": "38", "Lifts": "0", "Night": "No", "T-Parks": "No" }, "geometry": { "type": "Point", "coordinates": [ -120.037979101930006, 38.462895733807002 ] } },
{ "type": "Feature", "properties": { "resortname": "Bear Valley Mountain Resort", "isnordic": "False", "isxconly": "False", "isalpinexc": "False", "isallied": "False", "url": "https://www.indyskipass.com/our-resorts/bear-valley-mountain-resort", "Vertical": "1900 ft", "Trails": "75", "Lifts": "9", "Night": "No", "T-Parks": "Yes" }, "geometry": { "type": "Point", "coordinates": [ -120.0628751, 38.4788547 ] } },
{ "type": "Feature", "properties": { "resortname": "Beaver Mountain", "isnordic": "False", "isxconly": "False", "isalpinexc": "False", "isallied": "False", "url": "https://www.indyskipass.com/our-resorts/beaver-mountain", "Vertical": "1700 ft", "Trails": "48", "Lifts": "6", "Night": "Yes", "T-Parks": "Yes" }, "geometry": { "type": "Point", "coordinates": [ -111.5467243, 41.968075 ] } },
{ "type": "Feature", "properties": { "resortname": "Berkshire East Mountain Resort", "isnordic": "False", "isxconly": "False", "isalpinexc": "False", "isallied": "False", "url": "https://www.indyskipass.com/our-resorts/berkshire-east-mountain-resort", "Vertical": "1180 ft", "Trails": "45", "Lifts": "6", "Night": "Yes", "T-Parks": "Yes" }, "geometry": { "type": "Point", "coordinates": [ -72.8797153, 42.6211485 ] } },
{ "type": "Feature", "properties": { "resortname": "Big Moose", "isnordic": "False", "isxconly": "False", "isalpinexc": "False", "isallied": "False", "url": "https://www.indyskipass.com/our-resorts/big-moose", "Vertical": "600 ft", "Trails": "29", "Lifts": "2", "Night": "No", "T-Parks": "No" }, "geometry": { "type": "Point", "coordinates": [ -69.701919722368004, 45.507262858109002 ] } },
{ "type": "Feature", "properties": { "resortname": "Big Powderhorn", "isnordic": "False", "isxconly": "False", "isalpinexc": "False", "isallied": "False", "url": "https://www.indyskipass.com/our-resorts/big-powderhorn", "Vertical": "622 ft", "Trails": "45", "Lifts": "10", "Night": "No", "T-Parks": "Yes" }, "geometry": { "type": "Point", "coordinates": [ -90.0982872, 46.5090372 ] } },
{ "type": "Feature", "properties": { "resortname": "Big Rock Mountain", "isnordic": "False", "isxconly": "False", "isalpinexc": "False", "isallied": "False", "url": "https://www.indyskipass.com/our-resorts/big-rock-mountain", "Vertical": "920 ft", "Trails": "29", "Lifts": "4", "Night": "Yes", "T-Parks": "Yes" }, "geometry": { "type": "Point", "coordinates": [ -67.8353602, 46.5223714 ] } },
{ "type": "Feature", "properties": { "resortname": "Big White Ski Resort", "isnordic": "False", "isxconly": "False", "isalpinexc": "False", "isallied": "False", "url": "https://www.indyskipass.com/our-resorts/big-white-ski-resort", "Vertical": "2550 ft", "Trails": "119", "Lifts": "16", "Night": "Yes", "T-Parks": "Yes" }, "geometry": { "type": "Point", "coordinates": [ -118.9291592, 49.7216277 ] } },
{ "type": "Feature", "properties": { "resortname": "Black Jack Cross Country Ski Club", "isnordic": "True", "isxconly": "True", "isalpinexc": "False", "isallied": "False", "url": "https://www.indyskipass.com/our-resorts/black-jack-cross-country-ski-club", "Vertical": "1062 ft", "Trails": "30", "Lifts": "0", "Night": "Yes", "T-Parks": "No" }, "geometry": { "type": "Point", "coordinates": [ -117.729909868429999, 49.285741872159001 ] } },
{ "type": "Feature", "properties": { "resortname": "Black Mountain of Maine", "isnordic": "True", "isxconly": "False", "isalpinexc": "True", "isallied": "False", "url": "https://www.indyskipass.com/our-resorts/black-mountain-of-maine", "Vertical": "1380 ft", "Trails": "31", "Lifts": "2", "Night": "No", "T-Parks": "No" }, "geometry": { "type": "Point", "coordinates": [ -70.6159136, 44.5769444 ] } },
{ "type": "Feature", "properties": { "resortname": "Black Mountain Ski Area", "isnordic": "False", "isxconly": "False", "isalpinexc": "False", "isallied": "False", "url": "https://www.indyskipass.com/our-resorts/black-mountain-ski-area", "Vertical": "1100 ft", "Trails": "45", "Lifts": "5", "Night": "No", "T-Parks": "No" }, "geometry": { "type": "Point", "coordinates": [ -71.168649, 44.1666811 ] } },
{ "type": "Feature", "properties": { "resortname": "Blacktail Mountain Resort", "isnordic": "False", "isxconly": "False", "isalpinexc": "False", "isallied": "False", "url": "https://www.indyskipass.com/our-resorts/blacktail-mountain-resort", "Vertical": "1440 ft", "Trails": "29", "Lifts": "4", "Night": "No", "T-Parks": "Yes" }, "geometry": { "type": "Point", "coordinates": [ -114.3721471, 48.0148365 ] } },
{ "type": "Feature", "properties": { "resortname": "Blue Knob All Season Resort", "isnordic": "False", "isxconly": "False", "isalpinexc": "False", "isallied": "False", "url": "https://www.indyskipass.com/our-resorts/blue-knob-all-season-resort", "Vertical": "1068 ft", "Trails": "34", "Lifts": "6", "Night": "Yes", "T-Parks": "Yes" }, "geometry": { "type": "Point", "coordinates": [ -78.5666261, 40.2885997 ] } },
{ "type": "Feature", "properties": { "resortname": "Bolton Valley Resort", "isnordic": "False", "isxconly": "False", "isalpinexc": "False", "isallied": "False", "url": "https://www.indyskipass.com/our-resorts/bolton-valley-resort", "Vertical": "1704 ft", "Trails": "71", "Lifts": "6", "Night": "Yes", "T-Parks": "Yes" }, "geometry": { "type": "Point", "coordinates": [ -72.8538529, 44.4223862 ] } },
{ "type": "Feature", "properties": { "resortname": "Bottineau Winter Park", "isnordic": "False", "isxconly": "False", "isalpinexc": "False", "isallied": "False", "url": "https://www.indyskipass.com/our-resorts/bottineau-winter-park", "Vertical": "200 ft", "Trails": "9", "Lifts": "6", "Night": "Yes", "T-Parks": "Yes" }, "geometry": { "type": "Point", "coordinates": [ -100.4775329, 48.950695 ] } },
{ "type": "Feature", "properties": { "resortname": "Bousquet Mountain", "isnordic": "False", "isxconly": "False", "isalpinexc": "False", "isallied": "False", "url": "https://www.indyskipass.com/our-resorts/bousquet-mountain-0", "Vertical": "750 ft", "Trails": "22", "Lifts": "7", "Night": "Yes", "T-Parks": "Yes" }, "geometry": { "type": "Point", "coordinates": [ -73.2791733, 42.4190908 ] } },
{ "type": "Feature", "properties": { "resortname": "Bruce Mound Winter Sports Area", "isnordic": "False", "isxconly": "False", "isalpinexc": "False", "isallied": "False", "url": "https://www.indyskipass.com/our-resorts/bruce-mound-winter-sports-area", "Vertical": "375 ft", "Trails": "10", "Lifts": "5", "Night": "Yes", "T-Parks": "Yes" }, "geometry": { "type": "Point", "coordinates": [ -90.7882194, 44.4462814 ] } },
{ "type": "Feature", "properties": { "resortname": "Brundage Mountain Resort", "isnordic": "False", "isxconly": "False", "isalpinexc": "False", "isallied": "False", "url": "https://www.indyskipass.com/our-resorts/brundage-mountain-resort", "Vertical": "1921 ft", "Trails": "70", "Lifts": "6", "Night": "No", "T-Parks": "Yes" }, "geometry": { "type": "Point", "coordinates": [ -116.1569924, 45.0054 ] } },
{ "type": "Feature", "properties": { "resortname": "Bryce Resort", "isnordic": "False", "isxconly": "False", "isalpinexc": "False", "isallied": "False", "url": "https://www.indyskipass.com/our-resorts/bryce-resort", "Vertical": "500 ft", "Trails": "8", "Lifts": "4", "Night": "Yes", "T-Parks": "No" }, "geometry": { "type": "Point", "coordinates": [ -78.7682726, 38.8174554 ] } },
{ "type": "Feature", "properties": { "resortname": "Buck Hill", "isnordic": "False", "isxconly": "False", "isalpinexc": "False", "isallied": "False", "url": "https://www.indyskipass.com/our-resorts/buck-hill", "Vertical": "309 ft", "Trails": "15", "Lifts": "10", "Night": "Yes", "T-Parks": "Yes" }, "geometry": { "type": "Point", "coordinates": [ -93.2862539, 44.724844 ] } },
{ "type": "Feature", "properties": { "resortname": "Burke Mountain", "isnordic": "False", "isxconly": "False", "isalpinexc": "False", "isallied": "True", "url": "https://www.indyskipass.com/our-resorts/burke-mountain", "Vertical": "2011 ft", "Trails": "54", "Lifts": "4", "Night": "No", "T-Parks": "Yes" }, "geometry": { "type": "Point", "coordinates": [ -71.91029195, 44.62870605 ] } },
{ "type": "Feature", "properties": { "resortname": "Caberfae Peaks", "isnordic": "False", "isxconly": "False", "isalpinexc": "False", "isallied": "False", "url": "https://www.indyskipass.com/our-resorts/caberfae-peaks", "Vertical": "485 ft", "Trails": "27", "Lifts": "5", "Night": "Yes", "T-Parks": "Yes" }, "geometry": { "type": "Point", "coordinates": [ -85.7231528, 44.2447088 ] } },
{ "type": "Feature", "properties": { "resortname": "Calabogie Peaks Resort", "isnordic": "False", "isxconly": "False", "isalpinexc": "False", "isallied": "False", "url": "https://www.indyskipass.com/our-resorts/calabogie-peaks-resort", "Vertical": "781 ft", "Trails": "25", "Lifts": "3", "Night": "No", "T-Parks": "Yes" }, "geometry": { "type": "Point", "coordinates": [ -76.7829706, 45.274401 ] } },
{ "type": "Feature", "properties": { "resortname": "Caledonia Nordic Ski Club", "isnordic": "True", "isxconly": "True", "isalpinexc": "False", "isallied": "False", "url": "https://www.indyskipass.com/our-resorts/caledonia-nordic-ski-club", "Vertical": "0", "Trails": "55", "Lifts": "0", "Night": "Yes", "T-Parks": "No" }, "geometry": { "type": "Point", "coordinates": [ -122.872657444810002, 53.970752907697999 ] } },
{ "type": "Feature", "properties": { "resortname": "Camden Snow Bowl", "isnordic": "False", "isxconly": "False", "isalpinexc": "False", "isallied": "False", "url": "https://www.indyskipass.com/our-resorts/camden-snow-bowl", "Vertical": "1070 ft", "Trails": "15", "Lifts": "3", "Night": "Yes", "T-Parks": "Yes" }, "geometry": { "type": "Point", "coordinates": [ -69.131466755139002, 44.217698441190997 ] } },
{ "type": "Feature", "properties": { "resortname": "Camp Fortune", "isnordic": "False", "isxconly": "False", "isalpinexc": "False", "isallied": "False", "url": "https://www.indyskipass.com/our-resorts/camp-fortune", "Vertical": "627 ft", "Trails": "27", "Lifts": "8", "Night": "Yes", "T-Parks": "Yes" }, "geometry": { "type": "Point", "coordinates": [ -75.8537991, 45.5090169 ] } },
{ "type": "Feature", "properties": { "resortname": "Canaan Valley", "isnordic": "False", "isxconly": "False", "isalpinexc": "False", "isallied": "False", "url": "https://www.indyskipass.com/our-resorts/canaan-valley", "Vertical": "850 ft", "Trails": "47", "Lifts": "6", "Night": "No", "T-Parks": "No" }, "geometry": { "type": "Point", "coordinates": [ -79.460698240724, 39.029186666679003 ] } },
{ "type": "Feature", "properties": { "resortname": "Cannon Mountain", "isnordic": "False", "isxconly": "False", "isalpinexc": "False", "isallied": "False", "url": "https://www.indyskipass.com/our-resorts/cannon-mountain", "Vertical": "2180 ft", "Trails": "97", "Lifts": "10", "Night": "No", "T-Parks": "Yes" }, "geometry": { "type": "Point", "coordinates": [ -71.7044046, 44.1773749 ] } },
{ "type": "Feature", "properties": { "resortname": "Cape Smokey", "isnordic": "False", "isxconly": "False", "isalpinexc": "False", "isallied": "False", "url": "https://www.indyskipass.com/our-resorts/cape-smokey", "Vertical": "1000 ft", "Trails": "16", "Lifts": "2", "Night": "No", "T-Parks": "No" }, "geometry": { "type": "Point", "coordinates": [ -60.421888642657002, 46.627615294095001 ] } },
{ "type": "Feature", "properties": { "resortname": "Cascade Welcome Center", "isnordic": "True", "isxconly": "True", "isalpinexc": "False", "isallied": "False", "url": "https://www.indyskipass.com/our-resorts/cascade-welcome-center", "Vertical": "0", "Trails": "12", "Lifts": "0", "Night": "Yes", "T-Parks": "No" }, "geometry": { "type": "Point", "coordinates": [ -73.9263423, 44.2412103 ] } },
{ "type": "Feature", "properties": { "resortname": "Castle Mountain Resort", "isnordic": "False", "isxconly": "False", "isalpinexc": "False", "isallied": "False", "url": "https://www.indyskipass.com/our-resorts/castle-mountain-resort", "Vertical": "2845 ft", "Trails": "95", "Lifts": "6", "Night": "No", "T-Parks": "Yes" }, "geometry": { "type": "Point", "coordinates": [ -114.4151632, 49.3191188 ] } },
{ "type": "Feature", "properties": { "resortname": "Cataloochee Ski Area", "isnordic": "False", "isxconly": "False", "isalpinexc": "False", "isallied": "False", "url": "https://www.indyskipass.com/our-resorts/cataloochee-ski-area", "Vertical": "740 ft", "Trails": "18", "Lifts": "5", "Night": "Yes", "T-Parks": "Yes" }, "geometry": { "type": "Point", "coordinates": [ -83.0949862, 35.5592351 ] } },
{ "type": "Feature", "properties": { "resortname": "Catamount Mountain Resort", "isnordic": "False", "isxconly": "False", "isalpinexc": "False", "isallied": "False", "url": "https://www.indyskipass.com/our-resorts/catamount-mountain-resort", "Vertical": "1000 ft", "Trails": "44", "Lifts": "8", "Night": "Yes", "T-Parks": "Yes" }, "geometry": { "type": "Point", "coordinates": [ -73.4795061, 42.1690998 ] } },
{ "type": "Feature", "properties": { "resortname": "Catamount Outdoor Family Center", "isnordic": "True", "isxconly": "True", "isalpinexc": "False", "isallied": "False", "url": "https://www.indyskipass.com/our-resorts/catamount-outdoor-family-center", "Vertical": "250 ft", "Trails": "100", "Lifts": "0", "Night": "Yes", "T-Parks": "No" }, "geometry": { "type": "Point", "coordinates": [ -73.048833333583005, 44.448316445224002 ] } },
{ "type": "Feature", "properties": { "resortname": "Cazenovia Ski Club", "isnordic": "False", "isxconly": "False", "isalpinexc": "False", "isallied": "False", "url": "https://www.indyskipass.com/our-resorts/cazenovia-ski-club", "Vertical": "500 ft", "Trails": "14", "Lifts": "2", "Night": "No", "T-Parks": "No" }, "geometry": { "type": "Point", "coordinates": [ -75.8582938, 42.97673 ] } },
{ "type": "Feature", "properties": { "resortname": "Cherry Peak", "isnordic": "False", "isxconly": "False", "isalpinexc": "False", "isallied": "True", "url": "https://www.indyskipass.com/our-resorts/cherry-peak", "Vertical": "1265 ft", "Trails": "38", "Lifts": "4", "Night": "Yes", "T-Parks": "Yes" }, "geometry": { "type": "Point", "coordinates": [ -112.012675223049996, 41.636244851821999 ] } },
{ "type": "Feature", "properties": { "resortname": "Chestnut Mountain Resort", "isnordic": "False", "isxconly": "False", "isalpinexc": "False", "isallied": "False", "url": "https://www.indyskipass.com/our-resorts/chestnut-mountain-resort", "Vertical": "600 ft", "Trails": "19", "Lifts": "9", "Night": "Yes", "T-Parks": "Yes" }, "geometry": { "type": "Point", "coordinates": [ -90.3963733, 42.319017 ] } },
{ "type": "Feature", "properties": { "resortname": "China Peak", "isnordic": "False", "isxconly": "False", "isalpinexc": "False", "isallied": "False", "url": "https://www.indyskipass.com/our-resorts/china-peak", "Vertical": "1700 ft", "Trails": "55", "Lifts": "9", "Night": "No", "T-Parks": "Yes" }, "geometry": { "type": "Point", "coordinates": [ -119.1599511, 37.2364356 ] } },
{ "type": "Feature", "properties": { "resortname": "Christie Mountain", "isnordic": "False", "isxconly": "False", "isalpinexc": "False", "isallied": "False", "url": "https://www.indyskipass.com/our-resorts/christie-mountain", "Vertical": "350 ft", "Trails": "33", "Lifts": "5", "Night": "Yes", "T-Parks": "Yes" }, "geometry": { "type": "Point", "coordinates": [ -91.3833987, 45.5090962 ] } },
{ "type": "Feature", "properties": { "resortname": "Cooper Spur Ski Area", "isnordic": "False", "isxconly": "False", "isalpinexc": "False", "isallied": "False", "url": "https://www.indyskipass.com/our-resorts/cooper-spur-ski-area", "Vertical": "400 ft", "Trails": "9", "Lifts": "2", "Night": "Yes", "T-Parks": "No" }, "geometry": { "type": "Point", "coordinates": [ -121.607698, 45.4124145 ] } },
{ "type": "Feature", "properties": { "resortname": "Crosscut Mountain Sports Center", "isnordic": "True", "isxconly": "True", "isalpinexc": "False", "isallied": "False", "url": "https://www.indyskipass.com/our-resorts/crosscut-mountain-sports-center", "Vertical": "600 ft", "Trails": "35", "Lifts": "0", "Night": "Yes", "T-Parks": "No" }, "geometry": { "type": "Point", "coordinates": [ -110.802155829919997, 45.847946445692003 ] } },
{ "type": "Feature", "properties": { "resortname": "Crystal Mountain", "isnordic": "False", "isxconly": "False", "isalpinexc": "False", "isallied": "False", "url": "https://www.indyskipass.com/our-resorts/crystal-mountain", "Vertical": "375 ft", "Trails": "59", "Lifts": "8", "Night": "Yes", "T-Parks": "Yes" }, "geometry": { "type": "Point", "coordinates": [ -85.99161557, 44.52010072 ] } },
{ "type": "Feature", "properties": { "resortname": "Crystal Ridge", "isnordic": "False", "isxconly": "False", "isalpinexc": "False", "isallied": "False", "url": "https://www.indyskipass.com/our-resorts/crystal-ridge", "Vertical": "230 ft", "Trails": "6", "Lifts": "5", "Night": "Yes", "T-Parks": "Yes" }, "geometry": { "type": "Point", "coordinates": [ -88.0172624, 42.9208017 ] } },
{ "type": "Feature", "properties": { "resortname": "Cupid Valley", "isnordic": "False", "isxconly": "False", "isalpinexc": "False", "isallied": "False", "url": "https://www.indyskipass.com/our-resorts/cupid-valley", "Vertical": "1607 ft", "Trails": "12", "Lifts": "3", "Night": "No", "T-Parks": "No" }, "geometry": { "type": "Point", "coordinates": [ 138.4817142, 37.0552643 ] } },
{ "type": "Feature", "properties": { "resortname": "Dartmouth Skiway", "isnordic": "False", "isxconly": "False", "isalpinexc": "False", "isallied": "False", "url": "https://www.indyskipass.com/our-resorts/dartmouth-skiway", "Vertical": "986 ft", "Trails": "28", "Lifts": "4", "Night": "No", "T-Parks": "Yes" }, "geometry": { "type": "Point", "coordinates": [ -72.1021183, 43.787748 ] } },
{ "type": "Feature", "properties": { "resortname": "Detroit Mountain", "isnordic": "False", "isxconly": "False", "isalpinexc": "False", "isallied": "False", "url": "https://www.indyskipass.com/our-resorts/detroit-mountain", "Vertical": "210 ft", "Trails": "21", "Lifts": "6", "Night": "Yes", "T-Parks": "Yes" }, "geometry": { "type": "Point", "coordinates": [ -95.785864, 46.8130854 ] } },
{ "type": "Feature", "properties": { "resortname": "Dodge Ridge", "isnordic": "False", "isxconly": "False", "isalpinexc": "False", "isallied": "False", "url": "https://www.indyskipass.com/our-resorts/dodge-ridge", "Vertical": "1600 ft", "Trails": "67", "Lifts": "11", "Night": "No", "T-Parks": "Yes" }, "geometry": { "type": "Point", "coordinates": [ -119.9584442, 38.1898028 ] } },
{ "type": "Feature", "properties": { "resortname": "Dog Creek Lodge & Nordic Center", "isnordic": "True", "isxconly": "True", "isalpinexc": "False", "isallied": "False", "url": "https://www.indyskipass.com/our-resorts/dog-creek-lodge-nordic-center", "Vertical": "440 ft", "Trails": "25", "Lifts": "0", "Night": "No", "T-Parks": "No" }, "geometry": { "type": "Point", "coordinates": [ -114.60616667171, 48.591109845437998 ] } },
{ "type": "Feature", "properties": { "resortname": "Dynaland", "isnordic": "False", "isxconly": "False", "isalpinexc": "False", "isallied": "False", "url": "https://www.indyskipass.com/our-resorts/dynaland", "Vertical": "1467 ft", "Trails": "18", "Lifts": "5", "Night": "Yes", "T-Parks": "Yes" }, "geometry": { "type": "Point", "coordinates": [ 136.8679602, 35.9902088 ] } },
{ "type": "Feature", "properties": { "resortname": "Eagle Point", "isnordic": "False", "isxconly": "False", "isalpinexc": "False", "isallied": "False", "url": "https://www.indyskipass.com/our-resorts/eagle-point", "Vertical": "1500 ft", "Trails": "40", "Lifts": "5", "Night": "No", "T-Parks": "Yes" }, "geometry": { "type": "Point", "coordinates": [ -112.3864365, 38.3203245 ] } },
{ "type": "Feature", "properties": { "resortname": "Eaglecrest", "isnordic": "False", "isxconly": "False", "isalpinexc": "False", "isallied": "False", "url": "https://www.indyskipass.com/our-resorts/eaglecrest", "Vertical": "1620 ft", "Trails": "36", "Lifts": "4", "Night": "Yes", "T-Parks": "Yes" }, "geometry": { "type": "Point", "coordinates": [ -134.5153968, 58.2745312 ] } },
{ "type": "Feature", "properties": { "resortname": "Echo Mountain", "isnordic": "False", "isxconly": "False", "isalpinexc": "False", "isallied": "False", "url": "https://www.indyskipass.com/our-resorts/echo-mountain", "Vertical": "600 ft", "Trails": "8", "Lifts": "2", "Night": "Yes", "T-Parks": "Yes" }, "geometry": { "type": "Point", "coordinates": [ -105.5219731, 39.6845817 ] } },
{ "type": "Feature", "properties": { "resortname": "Enchanted Forest XC", "isnordic": "True", "isxconly": "True", "isalpinexc": "False", "isallied": "False", "url": "https://www.indyskipass.com/our-resorts/enchanted-forest-xc", "Vertical": "400 ft", "Trails": "35", "Lifts": "0", "Night": "No", "T-Parks": "No" }, "geometry": { "type": "Point", "coordinates": [ -105.3505175, 36.7001562 ] } },
{ "type": "Feature", "properties": { "resortname": "Ercİyes Ski Resort", "isnordic": "False", "isxconly": "False", "isalpinexc": "False", "isallied": "False", "url": "https://www.indyskipass.com/our-resorts/erciyes-ski-resort", "Vertical": "1260 ft", "Trails": "31", "Lifts": "24", "Night": "Yes", "T-Parks": "No" }, "geometry": { "type": "Point", "coordinates": [ 34.014505, 37.8781927 ] } },
{ "type": "Feature", "properties": { "resortname": "Fairmont Hot Springs", "isnordic": "False", "isxconly": "False", "isalpinexc": "False", "isallied": "False", "url": "https://www.indyskipass.com/our-resorts/fairmont-hot-springs", "Vertical": "1000 ft", "Trails": "14", "Lifts": "3", "Night": "Yes", "T-Parks": "Yes" }, "geometry": { "type": "Point", "coordinates": [ -115.8307703, 50.3388251 ] } },
{ "type": "Feature", "properties": { "resortname": "Garnet Hill XC", "isnordic": "True", "isxconly": "True", "isalpinexc": "False", "isallied": "False", "url": "https://www.indyskipass.com/our-resorts/garnet-hill-xc", "Vertical": "760 ft", "Trails": "35", "Lifts": "0", "Night": "No", "T-Parks": "No" }, "geometry": { "type": "Point", "coordinates": [ -74.1073436, 43.7124502 ] } },
{ "type": "Feature", "properties": { "resortname": "Geto Kogen", "isnordic": "False", "isxconly": "False", "isalpinexc": "False", "isallied": "False", "url": "https://www.indyskipass.com/our-resorts/geto-kogen", "Vertical": "1410 ft", "Trails": "14", "Lifts": "5", "Night": "Yes", "T-Parks": "Yes" }, "geometry": { "type": "Point", "coordinates": [ 140.9036806, 39.2366246 ] } },
{ "type": "Feature", "properties": { "resortname": "Glencoe Mountain Resort", "isnordic": "False", "isxconly": "False", "isalpinexc": "False", "isallied": "False", "url": "https://www.indyskipass.com/our-resorts/glencoe-mountain-resort", "Vertical": "2388 ft", "Trails": "20", "Lifts": "8", "Night": "No", "T-Parks": "No" }, "geometry": { "type": "Point", "coordinates": [ -4.8278692, 56.6324409 ] } },
{ "type": "Feature", "properties": { "resortname": "Granby Ranch", "isnordic": "False", "isxconly": "False", "isalpinexc": "False", "isallied": "False", "url": "https://www.indyskipass.com/our-resorts/granby-ranch", "Vertical": "1000 ft", "Trails": "43", "Lifts": "6", "Night": "Yes", "T-Parks": "Yes" }, "geometry": { "type": "Point", "coordinates": [ -105.9089128, 40.0446489 ] } },
{ "type": "Feature", "properties": { "resortname": "Granite Peak", "isnordic": "False", "isxconly": "False", "isalpinexc": "False", "isallied": "False", "url": "https://www.indyskipass.com/our-resorts/granite-peak", "Vertical": "700 ft", "Trails": "68", "Lifts": "7", "Night": "Yes", "T-Parks": "Yes" }, "geometry": { "type": "Point", "coordinates": [ -89.6958047, 44.9253444 ] } },
{ "type": "Feature", "properties": { "resortname": "Great Bear Ski Valley", "isnordic": "False", "isxconly": "False", "isalpinexc": "False", "isallied": "False", "url": "https://www.indyskipass.com/our-resorts/great-bear-ski-valley", "Vertical": "182 ft", "Trails": "14", "Lifts": "3", "Night": "Yes", "T-Parks": "Yes" }, "geometry": { "type": "Point", "coordinates": [ -96.66392463, 43.57814995 ] } },
{ "type": "Feature", "properties": { "resortname": "Greek Peak Mountain Resort", "isnordic": "False", "isxconly": "False", "isalpinexc": "False", "isallied": "False", "url": "https://www.indyskipass.com/our-resorts/greek-peak-mountain-resort", "Vertical": "952 ft", "Trails": "55", "Lifts": "8", "Night": "Yes", "T-Parks": "Yes" }, "geometry": { "type": "Point", "coordinates": [ -76.1474284, 42.5085935 ] } },
{ "type": "Feature", "properties": { "resortname": "Hardwood Ski and Bike", "isnordic": "True", "isxconly": "True", "isalpinexc": "False", "isallied": "False", "url": "https://www.indyskipass.com/our-resorts/hardwood-ski-and-bike", "Vertical": "0", "Trails": "6", "Lifts": "0", "Night": "Yes", "T-Parks": "No" }, "geometry": { "type": "Point", "coordinates": [ -79.594334, 44.5176652 ] } },
{ "type": "Feature", "properties": { "resortname": "Hatley Pointe", "isnordic": "False", "isxconly": "False", "isalpinexc": "False", "isallied": "False", "url": "https://www.indyskipass.com/our-resorts/hatley-pointe", "Vertical": "700 ft", "Trails": "17", "Lifts": "4", "Night": "Yes", "T-Parks": "Yes" }, "geometry": { "type": "Point", "coordinates": [ -82.508867754907001, 35.954295621863999 ] } },
{ "type": "Feature", "properties": { "resortname": "Hickory Ski Center", "isnordic": "False", "isxconly": "False", "isalpinexc": "False", "isallied": "False", "url": "https://www.indyskipass.com/our-resorts/hickory-ski-center", "Vertical": "1200 ft", "Trails": "18", "Lifts": "4", "Night": "Yes", "T-Parks": "No" }, "geometry": { "type": "Point", "coordinates": [ -73.816881816155998, 43.476208724560998 ] } },
{ "type": "Feature", "properties": { "resortname": "High Point XC Ski Center", "isnordic": "True", "isxconly": "True", "isalpinexc": "False", "isallied": "False", "url": "https://www.indyskipass.com/our-resorts/high-point-xc-ski-center", "Vertical": "400 ft", "Trails": "6", "Lifts": "0", "Night": "Yes", "T-Parks": "No" }, "geometry": { "type": "Point", "coordinates": [ -74.6733403, 41.30625 ] } },
{ "type": "Feature", "properties": { "resortname": "Hirugano Kogen Ski Resort", "isnordic": "False", "isxconly": "False", "isalpinexc": "False", "isallied": "False", "url": "https://www.indyskipass.com/our-resorts/hirugano-kogen-ski-resort", "Vertical": "492 ft", "Trails": "8", "Lifts": "3", "Night": "No", "T-Parks": "No" }, "geometry": { "type": "Point", "coordinates": [ 136.9036975, 36.0055471 ] } },
{ "type": "Feature", "properties": { "resortname": "Hoedown Hill", "isnordic": "False", "isxconly": "False", "isalpinexc": "False", "isallied": "False", "url": "https://www.indyskipass.com/our-resorts/hoedown-hill", "Vertical": "200 ft", "Trails": "6", "Lifts": "4", "Night": "Yes", "T-Parks": "Yes" }, "geometry": { "type": "Point", "coordinates": [ -104.9338958, 40.4520656 ] } },
{ "type": "Feature", "properties": { "resortname": "Homestake Lodge", "isnordic": "True", "isxconly": "True", "isalpinexc": "False", "isallied": "False", "url": "https://www.indyskipass.com/our-resorts/homestake-lodge", "Vertical": "0", "Trails": "21", "Lifts": "0", "Night": "Yes", "T-Parks": "No" }, "geometry": { "type": "Point", "coordinates": [ -112.3834782, 45.9052331 ] } },
{ "type": "Feature", "properties": { "resortname": "Hoodoo", "isnordic": "False", "isxconly": "False", "isalpinexc": "False", "isallied": "False", "url": "https://www.indyskipass.com/our-resorts/hoodoo", "Vertical": "1035 ft", "Trails": "36", "Lifts": "6", "Night": "Yes", "T-Parks": "Yes" }, "geometry": { "type": "Point", "coordinates": [ -121.8739961, 44.4086439 ] } },
{ "type": "Feature", "properties": { "resortname": "Howelsen Hill", "isnordic": "True", "isxconly": "False", "isalpinexc": "True", "isallied": "False", "url": "https://www.indyskipass.com/our-resorts/howelsen-hill", "Vertical": "440 ft", "Trails": "19", "Lifts": "4", "Night": "Yes", "T-Parks": "Yes" }, "geometry": { "type": "Point", "coordinates": [ -106.8405524, 40.4833683 ] } },
{ "type": "Feature", "properties": { "resortname": "Hudson Bay Mountain", "isnordic": "False", "isxconly": "False", "isalpinexc": "False", "isallied": "False", "url": "https://www.indyskipass.com/our-resorts/hudson-bay-mountain", "Vertical": "1750 ft", "Trails": "44", "Lifts": "3", "Night": "No", "T-Parks": "No" }, "geometry": { "type": "Point", "coordinates": [ -127.268995130449994, 54.765806606618 ] } },
{ "type": "Feature", "properties": { "resortname": "Huff Hills Ski Area", "isnordic": "False", "isxconly": "False", "isalpinexc": "False", "isallied": "False", "url": "https://www.indyskipass.com/our-resorts/huff-hills-ski-area", "Vertical": "400 ft", "Trails": "16", "Lifts": "4", "Night": "Yes", "T-Parks": "Yes" }, "geometry": { "type": "Point", "coordinates": [ -100.7257943, 46.627425 ] } },
{ "type": "Feature", "properties": { "resortname": "Hunt Hollow Ski Club", "isnordic": "False", "isxconly": "False", "isalpinexc": "False", "isallied": "False", "url": "https://www.indyskipass.com/our-resorts/hunt-hollow-ski-club", "Vertical": "875 ft", "Trails": "21", "Lifts": "4", "Night": "Yes", "T-Parks": "Yes" }, "geometry": { "type": "Point", "coordinates": [ -77.4806785, 42.645996 ] } },
{ "type": "Feature", "properties": { "resortname": "Hurricane Ridge", "isnordic": "False", "isxconly": "False", "isalpinexc": "False", "isallied": "False", "url": "https://www.indyskipass.com/our-resorts/hurricane-ridge", "Vertical": "700 ft", "Trails": "12", "Lifts": "3", "Night": "No", "T-Parks": "Yes" }, "geometry": { "type": "Point", "coordinates": [ -123.4977155, 47.9699846 ] } },
{ "type": "Feature", "properties": { "resortname": "Innsbruck Ski & City Network", "isnordic": "False", "isxconly": "False", "isalpinexc": "False", "isallied": "False", "url": "https://www.indyskipass.com/our-resorts/innsbruck-ski-city-network", "Vertical": "5282 ft", "Trails": "0", "Lifts": "111", "Night": "No", "T-Parks": "Yes" }, "geometry": { "type": "Point", "coordinates": [ 11.1618082, 47.1953877 ] } },
{ "type": "Feature", "properties": { "resortname": "Jackson XC", "isnordic": "True", "isxconly": "True", "isalpinexc": "False", "isallied": "False", "url": "https://www.indyskipass.com/our-resorts/jackson-xc", "Vertical": "1000 ft", "Trails": "60", "Lifts": "0", "Night": "No", "T-Parks": "No" }, "geometry": { "type": "Point", "coordinates": [ -71.1875049, 44.1455635 ] } },
{ "type": "Feature", "properties": { "resortname": "Jay Peak Resort", "isnordic": "False", "isxconly": "False", "isalpinexc": "False", "isallied": "False", "url": "https://www.indyskipass.com/our-resorts/jay-peak-resort", "Vertical": "2153 ft", "Trails": "81", "Lifts": "9", "Night": "No", "T-Parks": "Yes" }, "geometry": { "type": "Point", "coordinates": [ -72.5073526, 44.9379013 ] } },
{ "type": "Feature", "properties": { "resortname": "Kamui Ski Links", "isnordic": "False", "isxconly": "False", "isalpinexc": "False", "isallied": "False", "url": "https://www.indyskipass.com/our-resorts/kamui-ski-links", "Vertical": "1968 ft", "Trails": "25", "Lifts": "6", "Night": "No", "T-Parks": "No" }, "geometry": { "type": "Point", "coordinates": [ 142.1845217, 43.704967 ] } },
{ "type": "Feature", "properties": { "resortname": "Kelly Canyon", "isnordic": "False", "isxconly": "False", "isalpinexc": "False", "isallied": "False", "url": "https://www.indyskipass.com/our-resorts/kelly-canyon", "Vertical": "1200 ft", "Trails": "27", "Lifts": "5", "Night": "Yes", "T-Parks": "Yes" }, "geometry": { "type": "Point", "coordinates": [ -111.6324654, 43.6460169 ] } },
{ "type": "Feature", "properties": { "resortname": "Kimberley Nordic Club", "isnordic": "True", "isxconly": "True", "isalpinexc": "False", "isallied": "False", "url": "https://www.indyskipass.com/our-resorts/kimberley-nordic-club", "Vertical": "0", "Trails": "35", "Lifts": "0", "Night": "Yes", "T-Parks": "No" }, "geometry": { "type": "Point", "coordinates": [ -116.0095172, 49.6822765 ] } },
{ "type": "Feature", "properties": { "resortname": "King Pine", "isnordic": "False", "isxconly": "False", "isalpinexc": "False", "isallied": "True", "url": "https://www.indyskipass.com/our-resorts/king-pine", "Vertical": "350 ft", "Trails": "23", "Lifts": "6", "Night": "Yes", "T-Parks": "Yes" }, "geometry": { "type": "Point", "coordinates": [ -71.088944717979004, 43.868280175903003 ] } },
{ "type": "Feature", "properties": { "resortname": "Kiroro Snow World", "isnordic": "False", "isxconly": "False", "isalpinexc": "False", "isallied": "False", "url": "https://www.indyskipass.com/our-resorts/kiroro-snow-world", "Vertical": "2165 ft", "Trails": "23", "Lifts": "10", "Night": "Yes", "T-Parks": "No" }, "geometry": { "type": "Point", "coordinates": [ 140.9833059, 43.0663934 ] } },
{ "type": "Feature", "properties": { "resortname": "Leavenworth Winter Sports Club", "isnordic": "True", "isxconly": "True", "isalpinexc": "False", "isallied": "False", "url": "https://www.indyskipass.com/our-resorts/leavenworth-winter-sports-club", "Vertical": "235 ft", "Trails": "6", "Lifts": "0", "Night": "Yes", "T-Parks": "No" }, "geometry": { "type": "Point", "coordinates": [ -120.6712683, 47.6141122 ] } },
{ "type": "Feature", "properties": { "resortname": "Little Switzerland", "isnordic": "False", "isxconly": "False", "isalpinexc": "False", "isallied": "False", "url": "https://www.indyskipass.com/our-resorts/little-switzerland", "Vertical": "200 ft", "Trails": "16", "Lifts": "8", "Night": "Yes", "T-Parks": "Yes" }, "geometry": { "type": "Point", "coordinates": [ -88.2815214, 43.3379806 ] } },
{ "type": "Feature", "properties": { "resortname": "Loch Lomond", "isnordic": "False", "isxconly": "False", "isalpinexc": "False", "isallied": "False", "url": "https://www.indyskipass.com/our-resorts/loch-lomond", "Vertical": "751 ft", "Trails": "18", "Lifts": "3", "Night": "Yes", "T-Parks": "Yes" }, "geometry": { "type": "Point", "coordinates": [ -89.3508156, 48.2939871 ] } },
{ "type": "Feature", "properties": { "resortname": "Lost Trail Powder Mountain", "isnordic": "False", "isxconly": "False", "isalpinexc": "False", "isallied": "False", "url": "https://www.indyskipass.com/our-resorts/lost-trail-powder-mountain", "Vertical": "1200 ft", "Trails": "68", "Lifts": "8", "Night": "No", "T-Parks": "Yes" }, "geometry": { "type": "Point", "coordinates": [ -113.9546482, 45.6922649 ] } },
{ "type": "Feature", "properties": { "resortname": "Lost Valley ", "isnordic": "False", "isxconly": "False", "isalpinexc": "False", "isallied": "False", "url": "https://www.indyskipass.com/our-resorts/lost-valley", "Vertical": "233 ft", "Trails": "22", "Lifts": "3", "Night": "Yes", "T-Parks": "Yes" }, "geometry": { "type": "Point", "coordinates": [ -70.2855319, 44.1360699 ] } },
{ "type": "Feature", "properties": { "resortname": "Loup Loup Ski Bowl", "isnordic": "True", "isxconly": "False", "isalpinexc": "True", "isallied": "False", "url": "https://www.indyskipass.com/our-resorts/loup-loup-ski-bowl", "Vertical": "1240 ft", "Trails": "14", "Lifts": "3", "Night": "No", "T-Parks": "Yes" }, "geometry": { "type": "Point", "coordinates": [ -119.9135503, 48.3943616 ] } },
{ "type": "Feature", "properties": { "resortname": "Loveland Ski Area", "isnordic": "False", "isxconly": "False", "isalpinexc": "False", "isallied": "False", "url": "https://www.indyskipass.com/our-resorts/loveland-ski-area", "Vertical": "2210 ft", "Trails": "94", "Lifts": "12", "Night": "No", "T-Parks": "Yes" }, "geometry": { "type": "Point", "coordinates": [ -105.9005334, 39.6800625 ] } },
{ "type": "Feature", "properties": { "resortname": "Lutsen Mountains", "isnordic": "False", "isxconly": "False", "isalpinexc": "False", "isallied": "False", "url": "https://www.indyskipass.com/our-resorts/lutsen-mountains", "Vertical": "825 ft", "Trails": "95", "Lifts": "7", "Night": "No", "T-Parks": "Yes" }, "geometry": { "type": "Point", "coordinates": [ -90.716136, 47.663713 ] } },
{ "type": "Feature", "properties": { "resortname": "Madarao Ski Resort", "isnordic": "False", "isxconly": "False", "isalpinexc": "False", "isallied": "False", "url": "https://www.indyskipass.com/our-resorts/madarao-ski-resort", "Vertical": "1443 ft", "Trails": "32", "Lifts": "10", "Night": "No", "T-Parks": "Yes" }, "geometry": { "type": "Point", "coordinates": [ 138.2880255, 36.8524572 ] } },
{ "type": "Feature", "properties": { "resortname": "Magic Mountain", "isnordic": "False", "isxconly": "False", "isalpinexc": "False", "isallied": "False", "url": "https://www.indyskipass.com/our-resorts/magic-mountain", "Vertical": "1500 ft", "Trails": "50", "Lifts": "5", "Night": "No", "T-Parks": "Yes" }, "geometry": { "type": "Point", "coordinates": [ -72.77132459, 43.20191601 ] } },
{ "type": "Feature", "properties": { "resortname": "Maiko Resort", "isnordic": "False", "isxconly": "False", "isalpinexc": "False", "isallied": "False", "url": "https://www.indyskipass.com/our-resorts/maiko-resort", "Vertical": "2166 ft", "Trails": "26", "Lifts": "10", "Night": "Yes", "T-Parks": "Yes" }, "geometry": { "type": "Point", "coordinates": [ 138.824456355870012, 36.982265957180999 ] } },
{ "type": "Feature", "properties": { "resortname": "Malá Úpa ", "isnordic": "False", "isxconly": "False", "isalpinexc": "False", "isallied": "False", "url": "https://www.indyskipass.com/our-resorts/mala-upa", "Vertical": "853 ft", "Trails": "8", "Lifts": "9", "Night": "No", "T-Parks": "Yes" }, "geometry": { "type": "Point", "coordinates": [ 15.5505559, 50.7201426 ] } },
{ "type": "Feature", "properties": { "resortname": "Manning Park", "isnordic": "True", "isxconly": "False", "isalpinexc": "True", "isallied": "False", "url": "https://www.indyskipass.com/our-resorts/manning-park", "Vertical": "1417 ft", "Trails": "35", "Lifts": "4", "Night": "No", "T-Parks": "Yes" }, "geometry": { "type": "Point", "coordinates": [ -120.9521503, 49.0701941 ] } },
{ "type": "Feature", "properties": { "resortname": "Manning Park XC", "isnordic": "True", "isxconly": "True", "isalpinexc": "False", "isallied": "False", "url": "https://www.indyskipass.com/our-resorts/manning-park-xc", "Vertical": "1417 ft", "Trails": "35", "Lifts": "0", "Night": "No", "T-Parks": "No" }, "geometry": { "type": "Point", "coordinates": [ -120.7897713, 49.063089 ] } },
{ "type": "Feature", "properties": { "resortname": "Maple Ski Ridge", "isnordic": "False", "isxconly": "False", "isalpinexc": "False", "isallied": "False", "url": "https://www.indyskipass.com/our-resorts/maple-ski-ridge", "Vertical": "270 ft", "Trails": "8", "Lifts": "4", "Night": "Yes", "T-Parks": "No" }, "geometry": { "type": "Point", "coordinates": [ -74.0371723, 42.8170709 ] } },
{ "type": "Feature", "properties": { "resortname": "Maplelag Resort", "isnordic": "True", "isxconly": "True", "isalpinexc": "False", "isallied": "False", "url": "https://www.indyskipass.com/our-resorts/maplelag-resort", "Vertical": "110 ft", "Trails": "17", "Lifts": "0", "Night": "No", "T-Parks": "No" }, "geometry": { "type": "Point", "coordinates": [ -95.7793197, 47.009156 ] } },
{ "type": "Feature", "properties": { "resortname": "Marquette Mountain", "isnordic": "False", "isxconly": "False", "isalpinexc": "False", "isallied": "False", "url": "https://www.indyskipass.com/our-resorts/marquette-mountain", "Vertical": "540 ft", "Trails": "29", "Lifts": "4", "Night": "Yes", "T-Parks": "Yes" }, "geometry": { "type": "Point", "coordinates": [ -87.42339, 46.5082074 ] } },
{ "type": "Feature", "properties": { "resortname": "Massanutten Resort", "isnordic": "False", "isxconly": "False", "isalpinexc": "False", "isallied": "False", "url": "https://www.indyskipass.com/our-resorts/massanutten-resort", "Vertical": "1100 ft", "Trails": "23", "Lifts": "7", "Night": "Yes", "T-Parks": "Yes" }, "geometry": { "type": "Point", "coordinates": [ -78.7572956, 38.4035359 ] } },
{ "type": "Feature", "properties": { "resortname": "Massif du Sud ", "isnordic": "False", "isxconly": "False", "isalpinexc": "False", "isallied": "False", "url": "https://www.indyskipass.com/our-resorts/massif-du-sud", "Vertical": "1686 ft", "Trails": "37", "Lifts": "2", "Night": "No", "T-Parks": "Yes" }, "geometry": { "type": "Point", "coordinates": [ -70.5247494, 46.621511 ] } },
{ "type": "Feature", "properties": { "resortname": "McIntyre Ski Area", "isnordic": "False", "isxconly": "False", "isalpinexc": "False", "isallied": "True", "url": "https://www.indyskipass.com/our-resorts/mcintyre-ski-area", "Vertical": "200 ft", "Trails": "11", "Lifts": "5", "Night": "Yes", "T-Parks": "Yes" }, "geometry": { "type": "Point", "coordinates": [ -71.44381919, 43.00755388 ] } },
{ "type": "Feature", "properties": { "resortname": "Meadowlark Ski Resort", "isnordic": "False", "isxconly": "False", "isalpinexc": "False", "isallied": "False", "url": "https://www.indyskipass.com/our-resorts/meadowlark-ski-resort", "Vertical": "735 ft", "Trails": "14", "Lifts": "2", "Night": "No", "T-Parks": "No" }, "geometry": { "type": "Point", "coordinates": [ -107.2238357, 44.1636263 ] } },
{ "type": "Feature", "properties": { "resortname": "Methow Trails XC", "isnordic": "True", "isxconly": "True", "isalpinexc": "False", "isallied": "False", "url": "https://www.indyskipass.com/our-resorts/methow-trails-xc", "Vertical": "2250 ft", "Trails": "64", "Lifts": "0", "Night": "No", "T-Parks": "No" }, "geometry": { "type": "Point", "coordinates": [ -120.1825961, 48.4681634 ] } },
{ "type": "Feature", "properties": { "resortname": "Middlebury Snowbowl", "isnordic": "False", "isxconly": "False", "isalpinexc": "False", "isallied": "False", "url": "https://www.indyskipass.com/our-resorts/middlebury-snowbowl", "Vertical": "1020 ft", "Trails": "17", "Lifts": "4", "Night": "Yes", "T-Parks": "No" }, "geometry": { "type": "Point", "coordinates": [ -72.957726677625004, 43.939029933484001 ] } },
{ "type": "Feature", "properties": { "resortname": "Minocqua Winter Park", "isnordic": "True", "isxconly": "True", "isalpinexc": "False", "isallied": "False", "url": "https://www.indyskipass.com/our-resorts/minocqua-winter-park", "Vertical": "0", "Trails": "30", "Lifts": "0", "Night": "No", "T-Parks": "No" }, "geometry": { "type": "Point", "coordinates": [ -89.8977884, 45.830018 ] } },
{ "type": "Feature", "properties": { "resortname": "Mission Ridge", "isnordic": "False", "isxconly": "False", "isalpinexc": "False", "isallied": "False", "url": "https://www.indyskipass.com/our-resorts/mission-ridge", "Vertical": "2250 ft", "Trails": "54", "Lifts": "7", "Night": "Yes", "T-Parks": "Yes" }, "geometry": { "type": "Point", "coordinates": [ -120.4024513, 47.2924657 ] } },
{ "type": "Feature", "properties": { "resortname": "Mohawk Mountain", "isnordic": "False", "isxconly": "False", "isalpinexc": "False", "isallied": "False", "url": "https://www.indyskipass.com/our-resorts/mohawk-mountain", "Vertical": "650 ft", "Trails": "26", "Lifts": "8", "Night": "Yes", "T-Parks": "No" }, "geometry": { "type": "Point", "coordinates": [ -73.3176389, 41.838231 ] } },
{ "type": "Feature", "properties": { "resortname": "Mont Rigaud", "isnordic": "False", "isxconly": "False", "isalpinexc": "False", "isallied": "False", "url": "https://www.indyskipass.com/our-resorts/mont-rigaud", "Vertical": "394 ft", "Trails": "15", "Lifts": "4", "Night": "Yes", "T-Parks": "Yes" }, "geometry": { "type": "Point", "coordinates": [ -74.4091987, 45.4680559 ] } },
{ "type": "Feature", "properties": { "resortname": "Mont Ripley Ski Area", "isnordic": "False", "isxconly": "False", "isalpinexc": "False", "isallied": "True", "url": "https://www.indyskipass.com/our-resorts/mont-ripley-ski-area", "Vertical": "440 ft", "Trails": "24", "Lifts": "4", "Night": "Yes", "T-Parks": "Yes" }, "geometry": { "type": "Point", "coordinates": [ -88.56009945, 47.12809236 ] } },
{ "type": "Feature", "properties": { "resortname": "Montage Mountain", "isnordic": "False", "isxconly": "False", "isalpinexc": "False", "isallied": "False", "url": "https://www.indyskipass.com/our-resorts/montage-mountain", "Vertical": "1000 ft", "Trails": "27", "Lifts": "7", "Night": "Yes", "T-Parks": "Yes" }, "geometry": { "type": "Point", "coordinates": [ -75.6654972, 41.3512429 ] } },
{ "type": "Feature", "properties": { "resortname": "Montana Snowbowl", "isnordic": "False", "isxconly": "False", "isalpinexc": "False", "isallied": "False", "url": "https://www.indyskipass.com/our-resorts/montana-snowbowl", "Vertical": "2600 ft", "Trails": "68", "Lifts": "6", "Night": "No", "T-Parks": "No" }, "geometry": { "type": "Point", "coordinates": [ -114.0021483, 47.014436 ] } },
{ "type": "Feature", "properties": { "resortname": "Moose Mountain", "isnordic": "False", "isxconly": "False", "isalpinexc": "False", "isallied": "False", "url": "https://www.indyskipass.com/our-resorts/moose-mountain", "Vertical": "1300 ft", "Trails": "42", "Lifts": "1", "Night": "No", "T-Parks": "No" }, "geometry": { "type": "Point", "coordinates": [ -147.990681994730011, 64.941226825412002 ] } },
{ "type": "Feature", "properties": { "resortname": "Mount Baldy Ski Area", "isnordic": "False", "isxconly": "False", "isalpinexc": "False", "isallied": "False", "url": "https://www.indyskipass.com/our-resorts/mount-baldy-ski-area", "Vertical": "476 ft", "Trails": "12", "Lifts": "3", "Night": "Yes", "T-Parks": "Yes" }, "geometry": { "type": "Point", "coordinates": [ -89.1308235, 48.5258002 ] } },
{ "type": "Feature", "properties": { "resortname": "Mount Kato", "isnordic": "False", "isxconly": "False", "isalpinexc": "False", "isallied": "False", "url": "https://www.indyskipass.com/our-resorts/mount-kato", "Vertical": "240 ft", "Trails": "19", "Lifts": "10", "Night": "Yes", "T-Parks": "Yes" }, "geometry": { "type": "Point", "coordinates": [ -94.0359465, 44.1331301 ] } },
{ "type": "Feature", "properties": { "resortname": "Mountain High", "isnordic": "False", "isxconly": "False", "isalpinexc": "False", "isallied": "False", "url": "https://www.indyskipass.com/our-resorts/mountain-high", "Vertical": "1600 ft", "Trails": "50", "Lifts": "14", "Night": "Yes", "T-Parks": "Yes" }, "geometry": { "type": "Point", "coordinates": [ -117.6941045, 34.3769418 ] } },
{ "type": "Feature", "properties": { "resortname": "Mt. Abram", "isnordic": "False", "isxconly": "False", "isalpinexc": "False", "isallied": "False", "url": "https://www.indyskipass.com/our-resorts/mt-abram", "Vertical": "1050 ft", "Trails": "43", "Lifts": "4", "Night": "No", "T-Parks": "No" }, "geometry": { "type": "Point", "coordinates": [ -70.706811255825002, 44.379734955114998 ] } },
{ "type": "Feature", "properties": { "resortname": "Mt. Holiday", "isnordic": "False", "isxconly": "False", "isalpinexc": "False", "isallied": "False", "url": "https://www.indyskipass.com/our-resorts/mt-holiday", "Vertical": "200 ft", "Trails": "12", "Lifts": "4", "Night": "Yes", "T-Parks": "Yes" }, "geometry": { "type": "Point", "coordinates": [ -85.5135188, 44.7423148 ] } },
{ "type": "Feature", "properties": { "resortname": "Mt. Hood Meadows", "isnordic": "True", "isxconly": "False", "isalpinexc": "True", "isallied": "False", "url": "https://www.indyskipass.com/our-resorts/mt-hood-meadows", "Vertical": "1939 ft", "Trails": "142", "Lifts": "12", "Night": "Yes", "T-Parks": "Yes" }, "geometry": { "type": "Point", "coordinates": [ -121.6677651, 45.3317552 ] } },
{ "type": "Feature", "properties": { "resortname": "Mt. Racey Ski Resort", "isnordic": "False", "isxconly": "False", "isalpinexc": "False", "isallied": "False", "url": "https://www.indyskipass.com/our-resorts/mt-racey-ski-resort", "Vertical": "1326 ft", "Trails": "18", "Lifts": "4", "Night": "No", "T-Parks": "Yes" }, "geometry": { "type": "Point", "coordinates": [ 141.9688449, 43.0503785 ] } },
{ "type": "Feature", "properties": { "resortname": "Mt. Shasta", "isnordic": "True", "isxconly": "False", "isalpinexc": "True", "isallied": "False", "url": "https://www.indyskipass.com/our-resorts/mt-shasta", "Vertical": "2036 ft", "Trails": "38", "Lifts": "6", "Night": "Yes", "T-Parks": "Yes" }, "geometry": { "type": "Point", "coordinates": [ -122.2060823, 41.321106 ] } },
{ "type": "Feature", "properties": { "resortname": "Mt. Washington", "isnordic": "False", "isxconly": "False", "isalpinexc": "False", "isallied": "False", "url": "https://www.indyskipass.com/our-resorts/mt-washington", "Vertical": "1657 ft", "Trails": "81", "Lifts": "11", "Night": "No", "T-Parks": "Yes" }, "geometry": { "type": "Point", "coordinates": [ -125.261409425449997, 49.804509751028 ] } },
{ "type": "Feature", "properties": { "resortname": "Muica Snow Resort", "isnordic": "False", "isxconly": "False", "isalpinexc": "False", "isallied": "False", "url": "https://www.indyskipass.com/our-resorts/muica-snow-resort", "Vertical": "1312 ft", "Trails": "12", "Lifts": "4", "Night": "No", "T-Parks": "Yes" }, "geometry": { "type": "Point", "coordinates": [ 138.8433196, 37.0719009 ] } },
{ "type": "Feature", "properties": { "resortname": "Nayoro Piyashiri Ski Resort", "isnordic": "False", "isxconly": "False", "isalpinexc": "False", "isallied": "False", "url": "https://www.indyskipass.com/our-resorts/nayoro-piyashiri-ski-resort", "Vertical": "1578 ft", "Trails": "12", "Lifts": "3", "Night": "Yes", "T-Parks": "No" }, "geometry": { "type": "Point", "coordinates": [ 142.51389060791999, 44.404547241473999 ] } },
{ "type": "Feature", "properties": { "resortname": "Nelson Nordic Ski Club", "isnordic": "True", "isxconly": "True", "isalpinexc": "False", "isallied": "False", "url": "https://www.indyskipass.com/our-resorts/nelson-nordic-ski-club", "Vertical": "0", "Trails": "15", "Lifts": "0", "Night": "Yes", "T-Parks": "No" }, "geometry": { "type": "Point", "coordinates": [ -117.2137275, 49.409235 ] } },
{ "type": "Feature", "properties": { "resortname": "Nickel Plate Cross Country Ski Club", "isnordic": "True", "isxconly": "True", "isalpinexc": "False", "isallied": "False", "url": "https://www.indyskipass.com/our-resorts/nickel-plate-cross-country-ski-club", "Vertical": "495 ft", "Trails": "28", "Lifts": "0", "Night": "No", "T-Parks": "No" }, "geometry": { "type": "Point", "coordinates": [ -119.9567878, 49.383699 ] } },
{ "type": "Feature", "properties": { "resortname": "Ninox Snow Park", "isnordic": "False", "isxconly": "False", "isalpinexc": "False", "isallied": "False", "url": "https://www.indyskipass.com/our-resorts/ninox-snow-park", "Vertical": "709 ft", "Trails": "2", "Lifts": "2", "Night": "Yes", "T-Parks": "Yes" }, "geometry": { "type": "Point", "coordinates": [ 139.465327699999989, 37.9268164 ] } },
{ "type": "Feature", "properties": { "resortname": "Nordic Mountain", "isnordic": "False", "isxconly": "False", "isalpinexc": "False", "isallied": "False", "url": "https://www.indyskipass.com/our-resorts/nordic-mountain", "Vertical": "265 ft", "Trails": "16", "Lifts": "5", "Night": "Yes", "T-Parks": "Yes" }, "geometry": { "type": "Point", "coordinates": [ -89.1838618, 44.1214576 ] } },
{ "type": "Feature", "properties": { "resortname": "Norway Mountain", "isnordic": "False", "isxconly": "False", "isalpinexc": "False", "isallied": "False", "url": "https://www.indyskipass.com/our-resorts/norway-mountain", "Vertical": "500 ft", "Trails": "17", "Lifts": "6", "Night": "No", "T-Parks": "Yes" }, "geometry": { "type": "Point", "coordinates": [ -87.8724272, 45.7894874 ] } },
{ "type": "Feature", "properties": { "resortname": "Nubs Nob", "isnordic": "False", "isxconly": "False", "isalpinexc": "False", "isallied": "False", "url": "https://www.indyskipass.com/our-resorts/nubs-nob-0", "Vertical": "425 ft", "Trails": "53", "Lifts": "10", "Night": "Yes", "T-Parks": "Yes" }, "geometry": { "type": "Point", "coordinates": [ -84.9069303, 45.471166 ] } },
{ "type": "Feature", "properties": { "resortname": "Ober Mountain", "isnordic": "False", "isxconly": "False", "isalpinexc": "False", "isallied": "False", "url": "https://www.indyskipass.com/our-resorts/ober-mountain", "Vertical": "660 ft", "Trails": "10", "Lifts": "3", "Night": "Yes", "T-Parks": "Yes" }, "geometry": { "type": "Point", "coordinates": [ -83.5608417, 35.7031411 ] } },
{ "type": "Feature", "properties": { "resortname": "Okunakayama Kogen", "isnordic": "False", "isxconly": "False", "isalpinexc": "False", "isallied": "False", "url": "https://www.indyskipass.com/our-resorts/okunakayama-kogen", "Vertical": "1273 ft", "Trails": "11", "Lifts": "5", "Night": "Yes", "T-Parks": "Yes" }, "geometry": { "type": "Point", "coordinates": [ 141.1715197, 40.0874 ] } },
{ "type": "Feature", "properties": { "resortname": "Palcall Tsumagoi Resort", "isnordic": "False", "isxconly": "False", "isalpinexc": "False", "isallied": "False", "url": "https://www.indyskipass.com/our-resorts/palcall-tsumagoi-resort", "Vertical": "2395 ft", "Trails": "22", "Lifts": "5", "Night": "No", "T-Parks": "Yes" }, "geometry": { "type": "Point", "coordinates": [ 138.464023422410008, 36.556001888040001 ] } },
{ "type": "Feature", "properties": { "resortname": "Pass Powderkeg", "isnordic": "False", "isxconly": "False", "isalpinexc": "False", "isallied": "False", "url": "https://www.indyskipass.com/our-resorts/pass-powderkeg", "Vertical": "985 ft", "Trails": "27", "Lifts": "3", "Night": "Yes", "T-Parks": "Yes" }, "geometry": { "type": "Point", "coordinates": [ -114.4492817, 49.60297943 ] } },
{ "type": "Feature", "properties": { "resortname": "Pats Peak", "isnordic": "False", "isxconly": "False", "isalpinexc": "False", "isallied": "False", "url": "https://www.indyskipass.com/our-resorts/pats-peak", "Vertical": "770 ft", "Trails": "28", "Lifts": "11", "Night": "Yes", "T-Parks": "Yes" }, "geometry": { "type": "Point", "coordinates": [ -71.8002399, 43.1639733 ] } },
{ "type": "Feature", "properties": { "resortname": "Paul Bunyan Ski Hill", "isnordic": "False", "isxconly": "False", "isalpinexc": "False", "isallied": "True", "url": "https://www.indyskipass.com/our-resorts/paul-bunyan-ski-hill", "Vertical": "0", "Trails": "10", "Lifts": "6", "Night": "No", "T-Parks": "No" }, "geometry": { "type": "Point", "coordinates": [ -88.524082142113002, 45.325719991721002 ] } },
{ "type": "Feature", "properties": { "resortname": "Peek ‘n Peak", "isnordic": "False", "isxconly": "False", "isalpinexc": "False", "isallied": "False", "url": "https://www.indyskipass.com/our-resorts/peek-n-peak", "Vertical": "400 ft", "Trails": "27", "Lifts": "9", "Night": "Yes", "T-Parks": "Yes" }, "geometry": { "type": "Point", "coordinates": [ -79.7381204, 42.0623302 ] } },
{ "type": "Feature", "properties": { "resortname": "Phoenix Mountain", "isnordic": "False", "isxconly": "False", "isalpinexc": "False", "isallied": "False", "url": "https://www.indyskipass.com/our-resorts/phoenix-mountain", "Vertical": "705 ft", "Trails": "22", "Lifts": "2", "Night": "Yes", "T-Parks": "Yes" }, "geometry": { "type": "Point", "coordinates": [ -118.5866193, 49.103709 ] } },
{ "type": "Feature", "properties": { "resortname": "Pine Mountain", "isnordic": "False", "isxconly": "False", "isalpinexc": "False", "isallied": "False", "url": "https://www.indyskipass.com/our-resorts/pine-mountain", "Vertical": "364 ft", "Trails": "35", "Lifts": "4", "Night": "Yes", "T-Parks": "Yes" }, "geometry": { "type": "Point", "coordinates": [ -88.0913177, 45.8391227 ] } },
{ "type": "Feature", "properties": { "resortname": "Pippu Ski Resort", "isnordic": "False", "isxconly": "False", "isalpinexc": "False", "isallied": "False", "url": "https://www.indyskipass.com/our-resorts/pippu-ski-resort", "Vertical": "1053 ft", "Trails": "9", "Lifts": "3", "Night": "Yes", "T-Parks": "Yes" }, "geometry": { "type": "Point", "coordinates": [ 142.4972506, 43.9331104 ] } },
{ "type": "Feature", "properties": { "resortname": "Pomerelle Mountain Resort", "isnordic": "False", "isxconly": "False", "isalpinexc": "False", "isallied": "False", "url": "https://www.indyskipass.com/our-resorts/pomerelle-mountain-resort", "Vertical": "998 ft", "Trails": "22", "Lifts": "3", "Night": "Yes", "T-Parks": "Yes" }, "geometry": { "type": "Point", "coordinates": [ -113.6103326, 42.3179871 ] } },
{ "type": "Feature", "properties": { "resortname": "Powder Ridge", "isnordic": "False", "isxconly": "False", "isalpinexc": "False", "isallied": "False", "url": "https://www.indyskipass.com/our-resorts/powder-ridge", "Vertical": "300 ft", "Trails": "13", "Lifts": "6", "Night": "Yes", "T-Parks": "Yes" }, "geometry": { "type": "Point", "coordinates": [ -94.3075934, 45.3438676 ] } },
{ "type": "Feature", "properties": { "resortname": "Powderhorn", "isnordic": "False", "isxconly": "False", "isalpinexc": "False", "isallied": "False", "url": "https://www.indyskipass.com/our-resorts/powderhorn", "Vertical": "1697 ft", "Trails": "40", "Lifts": "5", "Night": "No", "T-Parks": "Yes" }, "geometry": { "type": "Point", "coordinates": [ -108.150839846029996, 39.070007153611002 ] } },
{ "type": "Feature", "properties": { "resortname": "Quarry Road Trails", "isnordic": "True", "isxconly": "True", "isalpinexc": "False", "isallied": "False", "url": "https://www.indyskipass.com/our-resorts/quarry-road-trails", "Vertical": "270 ft", "Trails": "22", "Lifts": "0", "Night": "Yes", "T-Parks": "No" }, "geometry": { "type": "Point", "coordinates": [ -69.6605718, 44.5826282 ] } },
{ "type": "Feature", "properties": { "resortname": "Ragged Mountain", "isnordic": "False", "isxconly": "False", "isalpinexc": "False", "isallied": "False", "url": "https://www.indyskipass.com/our-resorts/ragged-mountain", "Vertical": "1250 ft", "Trails": "57", "Lifts": "5", "Night": "No", "T-Parks": "Yes" }, "geometry": { "type": "Point", "coordinates": [ -71.842275918829998, 43.485425809051002 ] } },
{ "type": "Feature", "properties": { "resortname": "Rangeley Lakes Trail Center", "isnordic": "True", "isxconly": "True", "isalpinexc": "False", "isallied": "False", "url": "https://www.indyskipass.com/our-resorts/rangeley-lakes-trail-center", "Vertical": "400 ft", "Trails": "35", "Lifts": "0", "Night": "No", "T-Parks": "No" }, "geometry": { "type": "Point", "coordinates": [ -70.5684757, 44.9564326 ] } },
{ "type": "Feature", "properties": { "resortname": "Red Lodge", "isnordic": "False", "isxconly": "False", "isalpinexc": "False", "isallied": "False", "url": "https://www.indyskipass.com/our-resorts/red-lodge", "Vertical": "2400 ft", "Trails": "70", "Lifts": "8", "Night": "No", "T-Parks": "Yes" }, "geometry": { "type": "Point", "coordinates": [ -109.3352328, 45.19147328 ] } },
{ "type": "Feature", "properties": { "resortname": "Rikert Nordic Center", "isnordic": "True", "isxconly": "True", "isalpinexc": "False", "isallied": "False", "url": "https://www.indyskipass.com/our-resorts/rikert-nordic-center", "Vertical": "350 ft", "Trails": "35", "Lifts": "0", "Night": "No", "T-Parks": "No" }, "geometry": { "type": "Point", "coordinates": [ -72.9936673, 43.954787 ] } },
{ "type": "Feature", "properties": { "resortname": "Saddleback Mountain", "isnordic": "False", "isxconly": "False", "isalpinexc": "False", "isallied": "False", "url": "https://www.indyskipass.com/our-resorts/saddleback-mountain", "Vertical": "2000 ft", "Trails": "68", "Lifts": "6", "Night": "No", "T-Parks": "Yes" }, "geometry": { "type": "Point", "coordinates": [ -70.5296617, 44.9462173 ] } },
{ "type": "Feature", "properties": { "resortname": "Saskadena Six Ski Area", "isnordic": "False", "isxconly": "False", "isalpinexc": "False", "isallied": "False", "url": "https://www.indyskipass.com/our-resorts/saskadena-six-ski-area", "Vertical": "650 ft", "Trails": "28", "Lifts": "3", "Night": "No", "T-Parks": "Yes" }, "geometry": { "type": "Point", "coordinates": [ -72.5458462, 43.6650614 ] } },
{ "type": "Feature", "properties": { "resortname": "Sasquatch Mountain Resort", "isnordic": "False", "isxconly": "False", "isalpinexc": "False", "isallied": "False", "url": "https://www.indyskipass.com/our-resorts/sasquatch-mountain-resort", "Vertical": "1200 ft", "Trails": "36", "Lifts": "4", "Night": "Yes", "T-Parks": "Yes" }, "geometry": { "type": "Point", "coordinates": [ -121.9380493, 49.379918 ] } },
{ "type": "Feature", "properties": { "resortname": "Schuss Mountain at Shanty Creek", "isnordic": "False", "isxconly": "False", "isalpinexc": "False", "isallied": "False", "url": "https://www.indyskipass.com/our-resorts/schuss-mountain-at-shanty-creek", "Vertical": "450 ft", "Trails": "42", "Lifts": "7", "Night": "Yes", "T-Parks": "Yes" }, "geometry": { "type": "Point", "coordinates": [ -85.1357063, 44.940947 ] } },
{ "type": "Feature", "properties": { "resortname": "Shames Mountain", "isnordic": "False", "isxconly": "False", "isalpinexc": "False", "isallied": "False", "url": "https://www.indyskipass.com/our-resorts/shames-mountain", "Vertical": "1600 ft", "Trails": "30", "Lifts": "3", "Night": "No", "T-Parks": "Yes" }, "geometry": { "type": "Point", "coordinates": [ -128.9553952, 54.484131 ] } },
{ "type": "Feature", "properties": { "resortname": "Shawnee Mountain Ski Area", "isnordic": "False", "isxconly": "False", "isalpinexc": "False", "isallied": "False", "url": "https://www.indyskipass.com/our-resorts/shawnee-mountain-ski-area", "Vertical": "700 ft", "Trails": "23", "Lifts": "11", "Night": "Yes", "T-Parks": "Yes" }, "geometry": { "type": "Point", "coordinates": [ -75.08480066, 41.03977382 ] } },
{ "type": "Feature", "properties": { "resortname": "Shimokura", "isnordic": "False", "isxconly": "False", "isalpinexc": "False", "isallied": "False", "url": "https://www.indyskipass.com/our-resorts/shimokura", "Vertical": "1804 ft", "Trails": "7", "Lifts": "3", "Night": "Yes", "T-Parks": "No" }, "geometry": { "type": "Point", "coordinates": [ 140.9543099, 39.8990404 ] } },
{ "type": "Feature", "properties": { "resortname": "Silver Mountain", "isnordic": "False", "isxconly": "False", "isalpinexc": "False", "isallied": "False", "url": "https://www.indyskipass.com/our-resorts/silver-mountain", "Vertical": "2200 ft", "Trails": "83", "Lifts": "7", "Night": "No", "T-Parks": "Yes" }, "geometry": { "type": "Point", "coordinates": [ -116.1343218, 47.4950187 ] } },
{ "type": "Feature", "properties": { "resortname": "Skaneateles Ski Club", "isnordic": "False", "isxconly": "False", "isalpinexc": "False", "isallied": "False", "url": "https://www.indyskipass.com/our-resorts/skaneateles-ski-club", "Vertical": "330 ft", "Trails": "7", "Lifts": "3", "Night": "Yes", "T-Parks": "No" }, "geometry": { "type": "Point", "coordinates": [ -76.33377842, 42.91535333 ] } },
{ "type": "Feature", "properties": { "resortname": "Ski Big Bear", "isnordic": "False", "isxconly": "False", "isalpinexc": "False", "isallied": "False", "url": "https://www.indyskipass.com/our-resorts/ski-big-bear", "Vertical": "650 ft", "Trails": "18", "Lifts": "7", "Night": "Yes", "T-Parks": "Yes" }, "geometry": { "type": "Point", "coordinates": [ -75.0278006, 41.5233005 ] } },
{ "type": "Feature", "properties": { "resortname": "Ski Bluewood", "isnordic": "False", "isxconly": "False", "isalpinexc": "False", "isallied": "False", "url": "https://www.indyskipass.com/our-resorts/ski-bluewood", "Vertical": "1120 ft", "Trails": "25", "Lifts": "4", "Night": "No", "T-Parks": "Yes" }, "geometry": { "type": "Point", "coordinates": [ -117.853694, 46.0824682 ] } },
{ "type": "Feature", "properties": { "resortname": "Ski Sawmill", "isnordic": "False", "isxconly": "False", "isalpinexc": "False", "isallied": "False", "url": "https://www.indyskipass.com/our-resorts/ski-sawmill", "Vertical": "515 ft", "Trails": "13", "Lifts": "5", "Night": "Yes", "T-Parks": "Yes" }, "geometry": { "type": "Point", "coordinates": [ -77.2925621, 41.5209883 ] } },
{ "type": "Feature", "properties": { "resortname": "SkiWelt", "isnordic": "False", "isxconly": "False", "isalpinexc": "False", "isallied": "False", "url": "https://www.indyskipass.com/our-resorts/skiwelt", "Vertical": "4098 ft", "Trails": "279", "Lifts": "82", "Night": "Yes", "T-Parks": "Yes" }, "geometry": { "type": "Point", "coordinates": [ 12.2008647, 47.4787937 ] } },
{ "type": "Feature", "properties": { "resortname": "Snow King Mountain Resort", "isnordic": "False", "isxconly": "False", "isalpinexc": "False", "isallied": "False", "url": "https://www.indyskipass.com/our-resorts/snow-king-mountain-resort", "Vertical": "1560 ft", "Trails": "46", "Lifts": "8", "Night": "Yes", "T-Parks": "Yes" }, "geometry": { "type": "Point", "coordinates": [ -110.7586156, 43.4728087 ] } },
{ "type": "Feature", "properties": { "resortname": "Snow Ridge", "isnordic": "False", "isxconly": "False", "isalpinexc": "False", "isallied": "False", "url": "https://www.indyskipass.com/our-resorts/snow-ridge", "Vertical": "500 ft", "Trails": "33", "Lifts": "5", "Night": "Yes", "T-Parks": "Yes" }, "geometry": { "type": "Point", "coordinates": [ -75.4249888, 43.6397477 ] } },
{ "type": "Feature", "properties": { "resortname": "Snowriver", "isnordic": "False", "isxconly": "False", "isalpinexc": "False", "isallied": "False", "url": "https://www.indyskipass.com/our-resorts/snowriver", "Vertical": "538 ft", "Trails": "71", "Lifts": "11", "Night": "No", "T-Parks": "Yes" }, "geometry": { "type": "Point", "coordinates": [ -89.966801281412998, 46.500921527785998 ] } },
{ "type": "Feature", "properties": { "resortname": "Snowstar", "isnordic": "False", "isxconly": "False", "isalpinexc": "False", "isallied": "False", "url": "https://www.indyskipass.com/our-resorts/snowstar", "Vertical": "262 ft", "Trails": "15", "Lifts": "6", "Night": "Yes", "T-Parks": "Yes" }, "geometry": { "type": "Point", "coordinates": [ -90.7487552, 41.425203 ] } },
{ "type": "Feature", "properties": { "resortname": "Soldier Mountain", "isnordic": "False", "isxconly": "False", "isalpinexc": "False", "isallied": "False", "url": "https://www.indyskipass.com/our-resorts/soldier-mountain", "Vertical": "1421 ft", "Trails": "35", "Lifts": "3", "Night": "No", "T-Parks": "Yes" }, "geometry": { "type": "Point", "coordinates": [ -114.8394912, 43.484719 ] } },
{ "type": "Feature", "properties": { "resortname": "Sovereign Lake Nordic Club", "isnordic": "True", "isxconly": "True", "isalpinexc": "False", "isallied": "False", "url": "https://www.indyskipass.com/our-resorts/sovereign-lake-nordic-club", "Vertical": "560 ft", "Trails": "30", "Lifts": "0", "Night": "Yes", "T-Parks": "No" }, "geometry": { "type": "Point", "coordinates": [ -119.1077133, 50.36244 ] } },
{ "type": "Feature", "properties": { "resortname": "Spirit Mountain", "isnordic": "False", "isxconly": "False", "isalpinexc": "False", "isallied": "False", "url": "https://www.indyskipass.com/our-resorts/spirit-mountain", "Vertical": "700 ft", "Trails": "22", "Lifts": "7", "Night": "Yes", "T-Parks": "Yes" }, "geometry": { "type": "Point", "coordinates": [ -92.2167365, 46.7182684 ] } },
{ "type": "Feature", "properties": { "resortname": "Sundown Mountain", "isnordic": "False", "isxconly": "False", "isalpinexc": "False", "isallied": "False", "url": "https://www.indyskipass.com/our-resorts/sundown-mountain", "Vertical": "475 ft", "Trails": "21", "Lifts": "6", "Night": "Yes", "T-Parks": "Yes" }, "geometry": { "type": "Point", "coordinates": [ -90.8217712, 42.5152436 ] } },
{ "type": "Feature", "properties": { "resortname": "Sunlight Mountain Resort", "isnordic": "False", "isxconly": "False", "isalpinexc": "False", "isallied": "False", "url": "https://www.indyskipass.com/our-resorts/sunlight-mountain-resort", "Vertical": "2010 ft", "Trails": "72", "Lifts": "3", "Night": "No", "T-Parks": "Yes" }, "geometry": { "type": "Point", "coordinates": [ -107.341345, 39.3997821 ] } },
{ "type": "Feature", "properties": { "resortname": "Sunrise Park", "isnordic": "False", "isxconly": "False", "isalpinexc": "False", "isallied": "False", "url": "https://www.indyskipass.com/our-resorts/sunrise-park", "Vertical": "1800 ft", "Trails": "65", "Lifts": "6", "Night": "Yes", "T-Parks": "Yes" }, "geometry": { "type": "Point", "coordinates": [ -109.5668086, 33.9737271 ] } },
{ "type": "Feature", "properties": { "resortname": "Swain Resort", "isnordic": "False", "isxconly": "False", "isalpinexc": "False", "isallied": "False", "url": "https://www.indyskipass.com/our-resorts/swain-resort", "Vertical": "650 ft", "Trails": "35", "Lifts": "5", "Night": "Yes", "T-Parks": "Yes" }, "geometry": { "type": "Point", "coordinates": [ -77.8577131, 42.4765984 ] } },
{ "type": "Feature", "properties": { "resortname": "Swiss Valley", "isnordic": "False", "isxconly": "False", "isalpinexc": "False", "isallied": "False", "url": "https://www.indyskipass.com/our-resorts/swiss-valley", "Vertical": "225 ft", "Trails": "11", "Lifts": "7", "Night": "Yes", "T-Parks": "Yes" }, "geometry": { "type": "Point", "coordinates": [ -85.8299194, 41.9546966 ] } },
{ "type": "Feature", "properties": { "resortname": "Takasu Snow Park", "isnordic": "False", "isxconly": "False", "isalpinexc": "False", "isallied": "False", "url": "https://www.indyskipass.com/our-resorts/takasu-snow-park", "Vertical": "1968 ft", "Trails": "13", "Lifts": "4", "Night": "No", "T-Parks": "Yes" }, "geometry": { "type": "Point", "coordinates": [ 136.8747543, 35.9982091 ] } },
{ "type": "Feature", "properties": { "resortname": "Tamarack Mountain Resort", "isnordic": "False", "isxconly": "False", "isalpinexc": "False", "isallied": "False", "url": "https://www.indyskipass.com/our-resorts/tamarack-mountain-resort", "Vertical": "2800 ft", "Trails": "50", "Lifts": "7", "Night": "No", "T-Parks": "Yes" }, "geometry": { "type": "Point", "coordinates": [ -116.1256351, 44.6707683 ] } },
{ "type": "Feature", "properties": { "resortname": "Tangram Ski Circus", "isnordic": "False", "isxconly": "False", "isalpinexc": "False", "isallied": "False", "url": "https://www.indyskipass.com/our-resorts/tangram-ski-circus", "Vertical": "1706 ft", "Trails": "17", "Lifts": "5", "Night": "Yes", "T-Parks": "No" }, "geometry": { "type": "Point", "coordinates": [ 138.2604231, 36.8533811 ] } },
{ "type": "Feature", "properties": { "resortname": "Tazawako", "isnordic": "False", "isxconly": "False", "isalpinexc": "False", "isallied": "False", "url": "https://www.indyskipass.com/our-resorts/tazawako", "Vertical": "1995 ft", "Trails": "13", "Lifts": "6", "Night": "No", "T-Parks": "Yes" }, "geometry": { "type": "Point", "coordinates": [ 140.768132799999989, 39.7623337 ] } },
{ "type": "Feature", "properties": { "resortname": "Telemark Nordic Center", "isnordic": "True", "isxconly": "True", "isalpinexc": "False", "isallied": "False", "url": "https://www.indyskipass.com/our-resorts/telemark-nordic-center", "Vertical": "0", "Trails": "30", "Lifts": "0", "Night": "Yes", "T-Parks": "No" }, "geometry": { "type": "Point", "coordinates": [ -119.7175073, 49.863107 ] } },
{ "type": "Feature", "properties": { "resortname": "Terry Peak", "isnordic": "False", "isxconly": "False", "isalpinexc": "False", "isallied": "False", "url": "https://www.indyskipass.com/our-resorts/terry-peak", "Vertical": "1100 ft", "Trails": "30", "Lifts": "5", "Night": "No", "T-Parks": "Yes" }, "geometry": { "type": "Point", "coordinates": [ -103.8429043, 44.3345768 ] } },
{ "type": "Feature", "properties": { "resortname": "Titus Mountain", "isnordic": "False", "isxconly": "False", "isalpinexc": "False", "isallied": "False", "url": "https://www.indyskipass.com/our-resorts/titus-mountain", "Vertical": "1200 ft", "Trails": "53", "Lifts": "9", "Night": "Yes", "T-Parks": "Yes" }, "geometry": { "type": "Point", "coordinates": [ -74.2378371, 44.7634267 ] } },
{ "type": "Feature", "properties": { "resortname": "Togakushi Ski Resort", "isnordic": "False", "isxconly": "False", "isalpinexc": "False", "isallied": "False", "url": "https://www.indyskipass.com/our-resorts/togakushi-ski-resort", "Vertical": "1732 ft", "Trails": "19", "Lifts": "7", "Night": "No", "T-Parks": "Yes" }, "geometry": { "type": "Point", "coordinates": [ 138.092050699999987, 36.754361 ] } },
{ "type": "Feature", "properties": { "resortname": "Trapp Family Lodge", "isnordic": "True", "isxconly": "True", "isalpinexc": "False", "isallied": "False", "url": "https://www.indyskipass.com/our-resorts/trapp-family-lodge", "Vertical": "800 ft", "Trails": "24", "Lifts": "0", "Night": "No", "T-Parks": "No" }, "geometry": { "type": "Point", "coordinates": [ -72.7477526, 44.4654613 ] } },
{ "type": "Feature", "properties": { "resortname": "Tree Tops Resort", "isnordic": "True", "isxconly": "False", "isalpinexc": "True", "isallied": "False", "url": "https://www.indyskipass.com/our-resorts/tree-tops-resort", "Vertical": "225 ft", "Trails": "25", "Lifts": "5", "Night": "Yes", "T-Parks": "Yes" }, "geometry": { "type": "Point", "coordinates": [ -84.5887653, 45.0343188 ] } },
{ "type": "Feature", "properties": { "resortname": "Trollhaugen", "isnordic": "False", "isxconly": "False", "isalpinexc": "False", "isallied": "False", "url": "https://www.indyskipass.com/our-resorts/trollhaugen", "Vertical": "280 ft", "Trails": "30", "Lifts": "8", "Night": "Yes", "T-Parks": "Yes" }, "geometry": { "type": "Point", "coordinates": [ -92.6206738, 45.3513159 ] } },
{ "type": "Feature", "properties": { "resortname": "Turpin Meadow Ranch", "isnordic": "True", "isxconly": "True", "isalpinexc": "False", "isallied": "False", "url": "https://www.indyskipass.com/our-resorts/turpin-meadow-ranch", "Vertical": "600 ft", "Trails": "7", "Lifts": "0", "Night": "Yes", "T-Parks": "No" }, "geometry": { "type": "Point", "coordinates": [ -110.2708794, 43.8549223 ] } },
{ "type": "Feature", "properties": { "resortname": "Tussey Mountain", "isnordic": "False", "isxconly": "False", "isalpinexc": "False", "isallied": "False", "url": "https://www.indyskipass.com/our-resorts/tussey-mountain", "Vertical": "500 ft", "Trails": "8", "Lifts": "5", "Night": "Yes", "T-Parks": "Yes" }, "geometry": { "type": "Point", "coordinates": [ -77.7565121, 40.769202 ] } },
{ "type": "Feature", "properties": { "resortname": "Tyrol Basin Ski and Snowboard", "isnordic": "False", "isxconly": "False", "isalpinexc": "False", "isallied": "False", "url": "https://www.indyskipass.com/our-resorts/tyrol-basin-ski-and-snowboard", "Vertical": "300 ft", "Trails": "24", "Lifts": "7", "Night": "Yes", "T-Parks": "Yes" }, "geometry": { "type": "Point", "coordinates": [ -89.7855207, 43.0447546 ] } },
{ "type": "Feature", "properties": { "resortname": "Washigatake Ski Resort", "isnordic": "False", "isxconly": "False", "isalpinexc": "False", "isallied": "False", "url": "https://www.indyskipass.com/our-resorts/washigatake-ski-resort", "Vertical": "1444 ft", "Trails": "13", "Lifts": "4", "Night": "Yes", "T-Parks": "Yes" }, "geometry": { "type": "Point", "coordinates": [ 136.916981099999987, 35.942471 ] } },
{ "type": "Feature", "properties": { "resortname": "Waterville Valley Resort", "isnordic": "True", "isxconly": "False", "isalpinexc": "True", "isallied": "False", "url": "https://www.indyskipass.com/our-resorts/waterville-valley-resort", "Vertical": "2020 ft", "Trails": "62", "Lifts": "11", "Night": "Yes", "T-Parks": "Yes" }, "geometry": { "type": "Point", "coordinates": [ -71.528136004038004, 43.965814884251003 ] } },
{ "type": "Feature", "properties": { "resortname": "West Mountain", "isnordic": "False", "isxconly": "False", "isalpinexc": "False", "isallied": "False", "url": "https://www.indyskipass.com/our-resorts/west-mountain", "Vertical": "1000 ft", "Trails": "35", "Lifts": "6", "Night": "Yes", "T-Parks": "Yes" }, "geometry": { "type": "Point", "coordinates": [ -73.7278653, 43.285651 ] } },
{ "type": "Feature", "properties": { "resortname": "Whaleback Mountain", "isnordic": "False", "isxconly": "False", "isalpinexc": "False", "isallied": "False", "url": "https://www.indyskipass.com/our-resorts/whaleback-mountain", "Vertical": "700 ft", "Trails": "31", "Lifts": "4", "Night": "Yes", "T-Parks": "Yes" }, "geometry": { "type": "Point", "coordinates": [ -72.1828453, 43.601705 ] } },
{ "type": "Feature", "properties": { "resortname": "White Grass Ski Touring", "isnordic": "True", "isxconly": "True", "isalpinexc": "False", "isallied": "False", "url": "https://www.indyskipass.com/our-resorts/white-grass-ski-touring", "Vertical": "1200 ft", "Trails": "44", "Lifts": "0", "Night": "Yes", "T-Parks": "No" }, "geometry": { "type": "Point", "coordinates": [ -79.4242803, 39.019 ] } },
{ "type": "Feature", "properties": { "resortname": "White Pass", "isnordic": "False", "isxconly": "False", "isalpinexc": "False", "isallied": "False", "url": "https://www.indyskipass.com/our-resorts/white-pass", "Vertical": "2050 ft", "Trails": "45", "Lifts": "8", "Night": "Yes", "T-Parks": "Yes" }, "geometry": { "type": "Point", "coordinates": [ -121.3950684, 46.6366469 ] } },
{ "type": "Feature", "properties": { "resortname": "White Pine Touring Nordic Center", "isnordic": "True", "isxconly": "True", "isalpinexc": "False", "isallied": "False", "url": "https://www.indyskipass.com/our-resorts/white-pine-touring-nordic-center", "Vertical": "0", "Trails": "5", "Lifts": "0", "Night": "No", "T-Parks": "No" }, "geometry": { "type": "Point", "coordinates": [ -111.5135009, 40.66233179 ] } },
{ "type": "Feature", "properties": { "resortname": "Whitehorse Nordic Centre", "isnordic": "True", "isxconly": "True", "isalpinexc": "False", "isallied": "False", "url": "https://www.indyskipass.com/our-resorts/whitehorse-nordic-centre", "Vertical": "0", "Trails": "0", "Lifts": "0", "Night": "Yes", "T-Parks": "No" }, "geometry": { "type": "Point", "coordinates": [ -135.1040097, 60.7306527 ] } },
{ "type": "Feature", "properties": { "resortname": "WhitePIA Takasu", "isnordic": "False", "isxconly": "False", "isalpinexc": "False", "isallied": "False", "url": "https://www.indyskipass.com/our-resorts/whitepia-takasu", "Vertical": "1509 ft", "Trails": "13", "Lifts": "4", "Night": "No", "T-Parks": "Yes" }, "geometry": { "type": "Point", "coordinates": [ 136.9300044, 35.9558168 ] } },
{ "type": "Feature", "properties": { "resortname": "Whitepine Mountain Resort", "isnordic": "False", "isxconly": "False", "isalpinexc": "False", "isallied": "False", "url": "https://www.indyskipass.com/our-resorts/whitepine-mountain-resort", "Vertical": "1100 ft", "Trails": "29", "Lifts": "2", "Night": "No", "T-Parks": "Yes" }, "geometry": { "type": "Point", "coordinates": [ -109.7824737, 42.9736669 ] } },
{ "type": "Feature", "properties": { "resortname": "Williams Lake Cross Country Ski Club", "isnordic": "True", "isxconly": "True", "isalpinexc": "False", "isallied": "False", "url": "https://www.indyskipass.com/our-resorts/williams-lake-cross-country-ski-club", "Vertical": "410 ft", "Trails": "30", "Lifts": "0", "Night": "Yes", "T-Parks": "No" }, "geometry": { "type": "Point", "coordinates": [ -122.1228259, 52.2464628 ] } },
{ "type": "Feature", "properties": { "resortname": "Wintergreen", "isnordic": "False", "isxconly": "False", "isalpinexc": "False", "isallied": "False", "url": "https://www.indyskipass.com/our-resorts/wintergreen", "Vertical": "0", "Trails": "26", "Lifts": "5", "Night": "Yes", "T-Parks": "Yes" }, "geometry": { "type": "Point", "coordinates": [ -78.939293866598007, 37.930492749770004 ] } },
{ "type": "Feature", "properties": { "resortname": "Winterplace Ski Resort", "isnordic": "False", "isxconly": "False", "isalpinexc": "False", "isallied": "False", "url": "https://www.indyskipass.com/our-resorts/winterplace-ski-resort", "Vertical": "603 ft", "Trails": "27", "Lifts": "10", "Night": "Yes", "T-Parks": "Yes" }, "geometry": { "type": "Point", "coordinates": [ -81.128918, 37.596639 ] } },
{ "type": "Feature", "properties": { "resortname": "Wisp", "isnordic": "False", "isxconly": "False", "isalpinexc": "False", "isallied": "False", "url": "https://www.indyskipass.com/our-resorts/wisp", "Vertical": "700 ft", "Trails": "33", "Lifts": "13", "Night": "Yes", "T-Parks": "Yes" }, "geometry": { "type": "Point", "coordinates": [ -79.363232023281, 39.557463271076998 ] } },
{ "type": "Feature", "properties": { "resortname": "Woodstock Nordic Center", "isnordic": "True", "isxconly": "True", "isalpinexc": "False", "isallied": "False", "url": "https://www.indyskipass.com/our-resorts/woodstock-nordic-center", "Vertical": "570 ft", "Trails": "48", "Lifts": "0", "Night": "No", "T-Parks": "No" }, "geometry": { "type": "Point", "coordinates": [ -72.5187081, 43.6151845 ] } },
{ "type": "Feature", "properties": { "resortname": "Yuzawa Nakazato Snow Resort", "isnordic": "False", "isxconly": "False", "isalpinexc": "False", "isallied": "False", "url": "https://www.indyskipass.com/our-resorts/yuzawa-nakazato-snow-resort", "Vertical": "800 ft", "Trails": "16", "Lifts": "6", "Night": "No", "T-Parks": "No" }, "geometry": { "type": "Point", "coordinates": [ 138.8490268, 36.9141426 ] } }
]
}
